{
  "type": "FeatureCollection",
  "features": [
    {
      "type": "Feature",
      "properties": {
        "name": "New York",
        "population": 8336817
      },
      "geometry": {
        "type": "Point",
        "coordinates": [-74.0060, 40.7128]
      }
    },
    {
      "type": "Feature",
      "properties": {
        "name": "London",
        "population": 8982000
      },
      "geometry": {
        "type": "Point",
        "coordinates": [-0.1278, 51.5074]
      }
    },
    {
      "type": "Feature",
      "properties": {
        "name": "Tokyo",
        "population": 13960000
      },
      "geometry": {
        "type": "Point",
        "coordinates": [139.6503, 35.6762]
      }
    },
    {
      "type": "Feature",
      "properties": {
        "name": "Sydney",
        "population": 5312000
      },
      "geometry": {
        "type": "Point",
        "coordinates": [151.2093, -33.8688]
      }
    },
    {
      "type": "Feature",
      "properties": {
        "name": "Cairo",
        "population": 9500000
      },
      "geometry": {
        "type": "Point",
        "coordinates": [31.2357, 30.0444]
      }
    },
    {
      "type": "Feature",
      "properties": {
        "name": "Rio de Janeiro",
        "population": 6748000
      },
      "geometry": {
        "type": "Point",
        "coordinates": [-43.1729, -22.9068]
      }
    },
    {
      "type": "Feature",
      "properties": {
        "name": "Mumbai",
        "population": 20411000
      },
      "geometry": {
        "type": "Point",
        "coordinates": [72.8777, 19.0760]
      }
    },
    {
      "type": "Feature",
      "properties": {
        "name": "Los Angeles",
        "population": 3979576
      },
      "geometry": {
        "type": "Point",
        "coordinates": [-118.2437, 34.0522]
      }
    },
    {
      "type": "Feature",
      "properties": {
        "name": "Paris",
        "population": 2161000
      },
      "geometry": {
        "type": "Point",
        "coordinates": [2.3522, 48.8566]
      }
    },
    {
      "type": "Feature",
      "properties": {
        "name": "Beijing",
        "population": 21540000
      },
      "geometry": {
        "type": "Point",
        "coordinates": [116.4074, 39.9042]
      }
    }
  ]
}
